,City,Lat,Lng,Max Temp,Humidity,Cloudiness,Wind Speed,Country,Date
0,Saint-Philippe,-21.3585,55.7679,294.94,82,76,4.44,RE,1658674707
1,Punta Arenas,-53.15,-70.9167,275.21,75,20,6.17,CL,1658674707
2,Albany,42.6001,-73.9662,305.05,50,29,0.45,US,1658674679
3,Porto-Novo,6.4965,2.6036,302.05,61,91,4.47,BJ,1658674707
4,Dikson,73.5069,80.5464,280.26,84,100,7.24,RU,1658674708
5,Tuktoyaktuk,69.4541,-133.0374,280.15,93,100,3.6,CA,1658674708
6,Kapaa,22.0752,-159.319,298.33,83,20,6.69,US,1658674708
7,Ushuaia,-54.8,-68.3,274.94,69,0,4.12,AR,1658674492
8,Busselton,-33.65,115.3333,286.5,75,79,5.48,AU,1658674709
9,Castro,-24.7911,-50.0119,296.46,43,86,1.4,BR,1658674709
10,Lüderitz,-26.6481,15.1594,293.55,46,0,5.71,NA,1658674709
11,Havre-St-Pierre,50.2334,-63.5986,294.35,73,0,4.63,CA,1658674710
12,San Cristobal,7.7669,-72.225,295.25,39,98,2.62,VE,1658674710
13,Carnarvon,-24.8667,113.6333,289.98,42,0,7.19,AU,1658674710
14,Atuona,-9.8,-139.0333,297.67,74,48,7.5,PF,1658674710
15,Qaqortoq,60.7167,-46.0333,282.1,74,55,1.46,GL,1658674711
16,Virginia Beach,36.8529,-75.978,306.49,70,40,3.6,US,1658674289
17,Simpang,-1.2667,104.0833,296.77,95,30,0.66,ID,1658674711
18,Chokurdakh,70.6333,147.9167,282.71,61,96,4.37,RU,1658674711
19,Koppies,-27.2418,27.5742,286.87,20,0,3.01,ZA,1658674712
20,Ponta Grossa,-25.095,-50.1619,296.21,46,73,0.87,BR,1658674712
21,Labuhan,-6.8844,112.2051,296.98,73,60,3.76,ID,1658674712
22,Vaitape,-16.5167,-151.75,299.07,77,12,5.41,PF,1658674713
23,Meulaboh,4.1363,96.1285,297.53,92,100,1.32,ID,1658674713
24,Kalmar,56.6616,16.3616,297.67,70,96,2.24,SE,1658674713
25,Jumla,29.2747,82.1838,290.5,99,85,1.16,NP,1658674713
26,Kilindoni,-7.9139,39.6668,297.8,72,5,7.07,TZ,1658674714
27,Mataura,-46.1927,168.8643,276.75,98,17,1.12,NZ,1658674714
28,East London,-33.0153,27.9116,287.67,82,20,5.66,ZA,1658674714
29,Barrow,71.2906,-156.7887,274.13,94,100,3.74,US,1658674715
30,Andradas,-22.0681,-46.5692,299.86,30,23,1.04,BR,1658674715
31,Fort Saint James,54.4333,-124.25,288.93,68,100,1.26,CA,1658674715
32,Tambilil,5.9622,124.6697,299.0,81,100,1.64,PH,1658674716
33,Upernavik,72.7868,-56.1549,278.85,93,96,1.62,GL,1658674716
34,Kamyzyak,46.11,48.0736,296.14,68,40,2.0,RU,1658674716
35,Hithadhoo,-0.6,73.0833,301.21,72,98,2.62,MV,1658674717
36,Atherton,53.5237,-2.4935,294.37,90,100,3.13,GB,1658674574
37,Tromsø,69.6496,18.957,286.16,67,20,4.12,NO,1658674717
38,Roswell,34.0232,-84.3616,303.7,74,16,0.89,US,1658674717
39,Polunochnoye,60.8697,60.4153,289.95,92,98,3.0,RU,1658674717
40,Kaitangata,-46.2817,169.8464,274.73,91,3,1.23,NZ,1658674718
41,Esperance,-33.8667,121.9,285.07,64,87,5.21,AU,1658674718
42,Kruisfontein,-34.0033,24.7314,286.42,78,61,3.21,ZA,1658674718
43,Grand Gaube,-20.0064,57.6608,294.37,70,3,2.68,MU,1658674508
44,Samarai,-10.6167,150.6667,299.38,84,91,6.72,PG,1658674719
45,Ostrovnoy,68.0531,39.5131,284.85,79,84,6.97,RU,1658674719
46,Flinders,-34.5833,150.8552,283.92,89,3,2.68,AU,1658674719
47,Bonavista,48.6499,-53.1147,292.4,71,13,1.41,CA,1658674725
48,Mayumba,-3.432,10.6554,296.34,77,37,4.01,GA,1658674725
49,Moindou,-21.6924,165.677,293.96,86,0,1.04,NC,1658674725
50,Tallahassee,30.4383,-84.2807,305.0,70,15,0.78,US,1658674563
51,Half Moon Bay,37.4636,-122.4286,289.21,90,100,4.12,US,1658674605
52,Ciudad del Carmen,18.6333,-91.8333,300.25,77,62,5.2,MX,1658674496
53,Puerto Madryn,-42.7692,-65.0385,279.88,83,100,6.44,AR,1658674726
54,Gorontalo,0.5412,123.0595,297.14,90,83,2.4,ID,1658674726
55,Leshukonskoye,64.8989,45.7622,291.0,56,52,2.56,RU,1658674727
56,Vaini,-21.2,-175.2,294.24,83,20,3.09,TO,1658674727
57,Butaritari,3.0707,172.7902,301.02,70,38,8.69,KI,1658674727
58,Coquimbo,-29.9533,-71.3436,285.0,87,100,0.51,CL,1658674728
59,Zig,40.127,-92.7663,301.43,77,100,3.58,US,1658674728
60,Prince Rupert,54.3161,-130.3201,286.2,98,100,5.66,CA,1658674620
61,Pran Buri,12.3847,99.9098,300.11,80,87,1.8,TH,1658674728
62,Katsuura,35.1333,140.3,298.73,88,100,6.19,JP,1658674729
63,Ugoofaaru,5.6667,73.0,300.85,75,36,5.25,MV,1658674729
64,Bhatkal,13.9667,74.5667,298.94,86,100,3.76,IN,1658674729
65,Tirumakūdal Narsipur,12.21,76.9064,296.84,80,100,4.97,IN,1658674729
66,Ahipara,-35.1667,173.1667,288.18,93,100,11.39,NZ,1658674730
67,Clyde River,70.4692,-68.5914,279.28,93,100,7.72,CA,1658674730
68,Antalaha,-14.9003,50.2788,294.85,79,14,5.07,MG,1658674730
69,Santa Isabel Rio Negro,-0.4139,-65.0192,302.4,67,99,1.33,BR,1658674731
70,Kamskiye Polyany,55.4307,51.4171,300.6,65,52,0.91,RU,1658674731
71,Cidreira,-30.1811,-50.2056,293.94,80,70,1.87,BR,1658674731
72,Seoul,37.5683,126.9778,297.93,97,20,2.57,KR,1658674204
73,Carroll,39.5501,-77.0164,304.92,57,0,2.06,US,1658674732
74,George Town,5.4112,100.3354,302.12,82,40,3.6,MY,1658674573
75,Hobart,-42.8794,147.3294,282.07,93,78,3.09,AU,1658674626
76,Buala,-8.145,159.5921,299.56,80,26,2.72,SB,1658674732
77,Masuguru,-11.3667,38.4167,302.86,28,30,1.65,TZ,1658674732
78,Fort Nelson,58.8053,-122.7002,285.92,76,75,2.57,CA,1658674733
79,Lev Tolstoy,53.2134,39.446,298.13,62,86,1.54,RU,1658674733
80,Rikitea,-23.1203,-134.9692,296.49,80,73,6.61,PF,1658674733
81,Fairbanks,64.8378,-147.7164,285.83,77,40,0.0,US,1658674502
82,Bredasdorp,-34.5322,20.0403,286.87,64,8,4.7,ZA,1658674734
83,Marsá Maţrūḩ,31.3525,27.2453,303.26,58,0,8.23,EG,1658674455
84,Honiara,-9.4333,159.95,298.33,88,16,2.07,SB,1658674734
85,Saldanha,-33.0117,17.9442,292.18,56,0,4.15,ZA,1658674734
86,Koungou,-12.7336,45.2042,297.99,69,20,3.6,YT,1658674735
87,Zhigalovo,54.8097,105.1578,286.77,92,89,0.82,RU,1658674735
88,Klaksvík,62.2266,-6.589,285.66,92,100,12.37,FO,1658674735
89,Kahului,20.8947,-156.47,298.06,82,9,2.68,US,1658674736
90,Kyrylivka,46.3759,35.3675,299.82,55,50,3.35,UA,1658674736
91,San Jose,37.3394,-121.895,289.72,83,0,3.6,US,1658674736
92,Kamaishi,39.2667,141.8833,295.01,92,82,1.46,JP,1658674742
93,Mahibadhoo,3.7833,72.9667,301.11,76,38,5.1,MV,1658674742
94,Saskylakh,71.9167,114.0833,289.78,72,100,3.52,RU,1658674742
95,Nachingwea,-10.3833,38.7667,300.09,33,11,1.49,TZ,1658674743
96,Hilo,19.7297,-155.09,298.86,91,100,2.06,US,1658674628
97,Haines Junction,60.7522,-137.5108,280.12,93,100,0.0,CA,1658674743
98,Port Alfred,-33.5906,26.891,287.14,88,77,1.79,ZA,1658674743
99,Adrar,20.5022,-10.0711,315.87,5,6,5.4,MR,1658674744
100,Provideniya,64.3833,-173.3,278.44,92,100,2.49,RU,1658674744
101,Sochi,43.6,39.7303,296.2,71,13,1.71,RU,1658674745
102,Kindu,-2.95,25.95,298.06,72,97,1.25,CD,1658674745
103,Husavik,66.0449,-17.3389,283.22,81,95,3.12,IS,1658674745
104,Isla Mujeres,21.2311,-86.731,302.13,79,98,4.68,MX,1658674746
105,Bluff,-46.6,168.3333,276.93,84,19,1.65,NZ,1658674746
106,Yerbogachën,61.2767,108.0108,290.21,77,84,1.24,RU,1658674746
107,Waupun,43.6333,-88.7296,297.23,84,79,5.63,US,1658674746
108,Kuching,1.55,110.3333,298.27,94,20,2.24,MY,1658674747
109,Puerto Ayora,-0.7393,-90.3518,296.13,86,53,3.58,EC,1658674747
110,Naryan-Mar,67.6713,53.087,285.01,68,100,4.91,RU,1658674748
111,Ucluelet,48.9329,-125.5528,286.53,93,44,1.1,CA,1658674748
112,Constitución,-35.3333,-72.4167,285.92,88,100,5.2,CL,1658674748
113,Nikolskoye,59.7035,30.7861,295.3,76,100,2.11,RU,1658674749
114,Sāyla,22.55,71.4667,299.92,81,100,6.71,IN,1658674749
115,Pochutla,15.7432,-96.4661,302.49,72,99,0.35,MX,1658674749
116,Halifax,44.6453,-63.5724,304.55,73,25,2.57,CA,1658674673
117,Hermanus,-34.4187,19.2345,288.6,60,3,6.06,ZA,1658674453
118,Trairi,-3.2778,-39.2689,303.9,51,26,6.53,BR,1658674532
119,Dingle,10.9995,122.6711,298.25,89,97,1.06,PH,1658674750
120,Mount Isa,-20.7333,139.5,285.02,66,0,0.0,AU,1658674750
121,Lavrentiya,65.5833,-171.0,277.68,94,100,4.12,RU,1658674751
122,Kallaste,58.655,27.1592,294.28,82,62,4.54,EE,1658674751
123,Xiaoweizhai,26.1903,107.5125,296.24,92,0,2.38,CN,1658674751
124,Shingū,33.7333,135.9833,296.84,89,100,1.46,JP,1658674752
125,Biak,-0.9131,122.8766,297.03,84,89,2.71,ID,1658674752
126,Dajabón,19.5488,-71.7083,305.41,41,1,4.21,DO,1658674752
127,Khatanga,71.9667,102.5,294.44,53,100,4.81,RU,1658674753
128,Nanortalik,60.1432,-45.2371,282.6,73,100,1.59,GL,1658674753
129,Methóni,36.8197,21.7049,308.27,58,0,5.79,GR,1658674753
130,Linqing,36.8456,115.7117,298.18,82,0,4.55,CN,1658674754
131,Boende,-0.2167,20.8667,304.88,48,44,1.01,CD,1658674754
132,Umluj,25.0213,37.2685,303.36,65,74,2.98,SA,1658674754
133,Jiexiu,37.0244,111.9125,298.35,50,0,1.95,CN,1658674755
134,Tubajon,10.3317,125.5619,299.53,81,100,1.84,PH,1658674755
135,Ribeira Grande,38.5167,-28.7,299.37,78,40,5.14,PT,1658674755
136,Deep River,46.1001,-77.4995,293.15,96,100,2.71,CA,1658674755
137,Mont-Dore,-22.2833,166.5833,297.04,99,60,2.94,NC,1658674761
138,Jamestown,42.097,-79.2353,297.88,85,100,3.06,US,1658674761
139,Aban,56.67,96.06,291.31,59,79,3.39,RU,1658674762
140,Vilyuysk,63.7553,121.6247,289.74,78,8,3.06,RU,1658674762
141,Ozernovskiy,51.5,156.5167,284.94,94,100,0.94,RU,1658674763
142,Dunedin,-45.8742,170.5036,280.26,75,11,1.55,NZ,1658674598
143,Jiehu,35.5428,118.455,296.06,92,0,2.26,CN,1658674763
144,Kungurtug,50.5994,97.5228,283.77,79,12,1.11,RU,1658674763
145,Cap Malheureux,-19.9842,57.6142,293.97,70,3,2.24,MU,1658674764
146,Rundu,-17.9333,19.7667,301.52,16,0,2.63,NA,1658674764
147,Lodwar,3.1191,35.5973,306.44,29,63,3.25,KE,1658674764
148,Cape Town,-33.9258,18.4232,292.1,58,0,5.14,ZA,1658674583
149,Arraial do Cabo,-22.9661,-42.0278,299.13,57,0,9.77,BR,1658674765
150,Paulo Afonso,-9.4061,-38.2147,300.04,46,95,6.59,BR,1658674765
151,Paita,-5.0892,-81.1144,293.17,77,20,5.91,PE,1658674765
152,Kailua,21.4022,-157.7394,297.67,80,15,2.24,US,1658674766
153,Dagua,3.6569,-76.6886,298.43,71,93,0.44,CO,1658674766
154,Goderich,43.7501,-81.7165,294.77,94,100,3.09,CA,1658674766
155,Kendari,-3.945,122.4989,295.68,82,8,1.35,ID,1658674767
156,Geraldton,-28.7667,114.6,284.38,93,100,2.57,AU,1658674767
157,Aswān,24.0934,32.907,315.76,9,0,5.14,EG,1658674767
158,Manggar,-2.8833,108.2667,300.05,83,67,4.96,ID,1658674767
159,Lappeenranta,61.0587,28.1887,291.93,88,75,3.09,FI,1658674768
160,Bengkulu,-3.8004,102.2655,298.2,89,98,1.43,ID,1658674768
161,Torbay,47.6666,-52.7314,302.53,55,20,4.12,CA,1658674768
162,Kavaratti,10.5669,72.642,300.66,78,93,5.78,IN,1658674769
163,Yellowknife,62.456,-114.3525,288.46,94,75,2.57,CA,1658674769
164,Anadyr,64.75,177.4833,280.43,75,0,2.0,RU,1658674769
165,San Patricio,28.017,-97.5169,305.08,54,7,5.99,US,1658674770
166,Muravlenko,63.7898,74.523,285.05,79,100,5.44,RU,1658674770
167,Hobyo,5.3505,48.5268,298.34,78,44,11.74,SO,1658674770
168,Hasanpur,28.7167,78.2833,306.75,47,100,4.62,IN,1658674770
169,Bilibino,68.0546,166.4372,278.6,79,35,2.76,RU,1658674771
170,Saint-Joseph,-21.3667,55.6167,294.38,82,72,4.47,RE,1658674771
171,Mar del Plata,-38.0023,-57.5575,285.98,94,75,2.06,AR,1658674771
172,São Filipe,14.8961,-24.4956,298.82,83,93,0.37,CV,1658674772
173,Örebro,59.2741,15.2066,294.96,34,20,5.14,SE,1658674772
174,Faanui,-16.4833,-151.75,299.07,77,13,5.41,PF,1658674772
175,Avarua,-21.2078,-159.775,294.18,52,20,2.57,CK,1658674773
176,Hemnesberget,66.2333,13.6333,290.69,80,48,1.59,NO,1658674773
177,Shenjiamen,29.9576,122.298,298.46,90,6,3.56,CN,1658674773
178,Masindi,1.6744,31.715,297.44,55,91,1.17,UG,1658674773
179,Cabo San Lucas,22.8909,-109.9124,301.27,87,85,1.67,MX,1658674657
180,Cape Canaveral,28.4058,-80.6048,305.42,68,0,3.6,US,1658674526
181,Saint Anthony,45.0205,-93.218,296.56,61,20,6.69,US,1658674774
182,Isangel,-19.55,169.2667,297.63,88,0,1.98,VU,1658674774
183,Saint George,37.1041,-113.5841,304.4,39,38,2.59,US,1658674774
184,Karakulino,56.012,53.7067,297.95,64,12,1.81,RU,1658674775
185,Hadgāon,19.5,77.6667,297.93,85,100,3.46,IN,1658674780
186,Atasū,48.6814,71.6433,297.18,28,0,6.73,KZ,1658674780
187,Skibbereen,51.55,-9.2667,290.99,84,26,10.59,IE,1658674781
188,Aklavik,68.2191,-135.0107,281.15,93,100,2.06,CA,1658674781
189,Fortuna,40.5982,-124.1573,285.36,79,9,1.37,US,1658674781
190,Mehamn,71.0357,27.8492,285.12,71,88,6.17,NO,1658674782
191,Petropavlovsk-Kamchatskiy,53.0452,158.6483,284.48,100,100,5.0,RU,1658674782
192,Mersing,2.4312,103.8405,300.1,89,40,1.54,MY,1658674782
193,Mundargi,15.2167,75.9,297.36,75,94,6.53,IN,1658674783
194,Takoradze,4.8845,-1.7554,298.88,72,91,4.62,GH,1658674783
195,Hamilton,39.1834,-84.5333,304.12,72,100,2.68,US,1658674564
196,Nicolás Bravo,18.45,-88.9167,301.89,72,68,2.09,MX,1658674783
197,Nioro,13.35,-15.75,301.52,64,99,2.79,GM,1658674783
198,Lincoln,40.8,-96.667,299.34,75,100,4.47,US,1658674489
199,Krasnosel'kup,65.7,82.4667,286.83,97,100,9.43,RU,1658674784
200,Saint-Augustin,51.226,-58.6502,296.81,63,56,4.73,CA,1658674784
201,Port Blair,11.6667,92.75,300.55,82,69,1.5,IN,1658674784
202,Batangafo,7.3008,18.2833,302.78,68,65,1.07,CF,1658674785
203,Durazno,-33.4131,-56.5006,293.12,88,20,4.12,UY,1658674767
204,Kemijärvi,66.7131,27.4306,289.81,45,98,2.18,FI,1658674785
205,Samaná,19.2056,-69.3369,300.27,89,40,2.06,DO,1658674785
206,Lebu,-37.6167,-73.65,282.36,96,100,2.33,CL,1658674786
207,Grindavik,63.8424,-22.4338,286.12,93,75,5.66,IS,1658674786
208,Ixtapa,20.7,-105.2,301.05,84,99,0.45,MX,1658674786
209,Salalah,17.0151,54.0924,298.25,92,100,4.55,OM,1658674608
210,Andenes,69.3143,16.1194,285.14,76,40,4.63,NO,1658674787
211,Souillac,-20.5167,57.5167,294.36,73,75,5.14,MU,1658674787
212,Kaduna,10.5222,7.4383,299.77,72,86,2.28,NG,1658674756
213,Port Elizabeth,-33.918,25.5701,287.31,92,75,6.17,ZA,1658674787
214,Zolotukhino,52.0842,36.3772,301.19,57,55,2.51,RU,1658674788
215,Jardim,-21.4803,-56.1381,306.05,23,94,4.1,BR,1658674788
216,Bull Savanna,17.8868,-77.5902,301.17,66,100,3.7,JM,1658674788
217,Perth,-31.9333,115.8333,284.22,90,20,2.57,AU,1658674576
218,Arrondissement de Saint-Denis,48.9167,2.3333,306.61,34,0,5.14,FR,1658674567
219,Jatai,-17.8814,-51.7144,302.61,25,60,3.96,BR,1658674789
220,Subiaco,41.9254,13.0941,309.74,48,0,4.36,IT,1658674789
221,Somerset,40.5668,-74.5496,307.61,46,42,2.24,US,1658674789
222,Sunrise Manor,36.2111,-115.0731,307.26,35,10,1.34,US,1658674790
223,Tanout,14.9709,8.8879,308.29,31,2,2.16,NE,1658674790
224,Batemans Bay,-35.7167,150.1833,284.87,95,12,1.54,AU,1658674790
225,Qaanaaq,77.484,-69.3632,276.99,93,100,0.52,GL,1658674791
226,Ekhabi,53.5102,142.9671,287.46,96,19,4.08,RU,1658674791
227,Helong,42.5397,128.9972,290.58,99,76,1.62,CN,1658674791
228,Lompoc,34.6391,-120.4579,286.77,86,100,3.13,US,1658674792
229,Cherskiy,68.75,161.3,282.31,64,39,2.29,RU,1658674792
230,Bariloche,-41.1456,-71.3082,277.17,93,75,2.06,AR,1658674641
231,Meaford,44.6001,-80.583,294.96,91,100,6.08,CA,1658674564
232,Kupang,-10.1667,123.5833,295.55,69,80,4.72,ID,1658674798
233,Visby,57.6409,18.296,295.96,60,0,5.66,SE,1658674798
234,Pingliang,35.5392,106.6861,292.57,81,79,3.32,CN,1658674798
235,Uwajima,33.2238,132.56,297.18,87,72,2.64,JP,1658674799
236,Bandarbeyla,9.4942,50.8122,298.29,81,100,14.5,SO,1658674799
237,Mountain Home,43.133,-115.6912,296.95,23,0,5.79,US,1658674782
238,Thompson,55.7435,-97.8558,290.24,63,75,3.6,CA,1658674799
239,Souris,49.6172,-100.2612,289.67,88,100,3.58,CA,1658674800
240,Bathsheba,13.2167,-59.5167,303.49,81,20,7.72,BB,1658674800
241,Najrān,17.4924,44.1277,308.51,27,42,6.53,SA,1658674800
242,Pechora,65.1472,57.2244,287.81,56,37,4.9,RU,1658674801
243,Codrington,-38.2667,141.9667,285.13,82,100,6.32,AU,1658674801
244,Kenai,60.5544,-151.2583,285.42,88,99,3.66,US,1658674801
245,Wolfville,45.0835,-64.3655,305.75,68,59,0.45,CA,1658674802
246,Kousséri,12.0769,15.0306,307.77,37,25,1.07,CM,1658674803
247,São Gabriel da Cachoeira,-0.1303,-67.0892,297.5,92,100,1.41,BR,1658674803
248,Lázaro Cárdenas,17.9583,-102.2,300.71,72,100,1.35,MX,1658674805
249,Dongsheng,39.8161,109.9776,293.76,49,100,9.03,CN,1658674805
250,Ubari,26.5921,12.7805,309.26,13,0,4.74,LY,1658674806
251,Tasiilaq,65.6145,-37.6368,277.03,84,44,2.66,GL,1658674806
252,Piliscsaba,47.6342,18.8289,305.47,26,25,5.86,HU,1658674808
253,Touros,-5.1989,-35.4608,300.26,76,98,8.37,BR,1658674666
254,Pangnirtung,66.1451,-65.7125,285.75,62,50,1.81,CA,1658674809
255,Milići,44.1711,19.0903,301.8,44,84,4.39,BA,1658674809
256,Vestmanna,62.1564,-7.1664,284.66,66,100,7.2,FO,1658674810
257,Remscheid,51.1833,7.2,304.92,45,24,1.73,DE,1658674632
258,Camacha,33.0833,-16.3333,297.83,69,20,8.75,PT,1658674811
259,Nome,64.5011,-165.4064,279.91,98,97,3.34,US,1658674812
260,Hong Kong,22.2855,114.1577,306.03,79,0,4.02,HK,1658674536
261,Kumul,42.8,93.45,307.64,15,88,5.59,CN,1658674812
262,Necochea,-38.5473,-58.7368,284.21,81,100,3.81,AR,1658674813
263,Saint Paul Harbor,57.79,-152.4072,284.88,94,100,3.6,US,1658674813
264,Kovdor,67.5662,30.4758,286.39,59,100,2.1,RU,1658674814
265,Ardakān,32.31,54.0175,314.55,7,7,5.84,IR,1658674815
266,Richards Bay,-28.783,32.0377,290.91,60,12,8.85,ZA,1658674815
267,Tyazhinskiy,56.116,88.524,285.92,95,100,1.99,RU,1658674815
268,Kirakira,-10.4544,161.9205,298.96,83,6,3.14,SB,1658674816
269,San Rafael del Sur,11.8485,-86.4384,300.49,69,99,5.66,NI,1658674816
270,‘Ewa Beach,21.3156,-158.0072,297.64,76,3,3.58,US,1658674817
271,Zharkent,44.1628,80.0,303.17,20,2,5.14,KZ,1658674817
272,Nanyamba,-10.6833,39.8333,297.41,56,31,5.0,TZ,1658674818
273,Zonguldak,41.25,31.8333,295.96,49,0,3.45,TR,1658674818
274,Jibou,47.2667,23.25,301.77,31,99,8.3,RO,1658674819
275,Dalhousie,32.5333,75.9833,290.28,88,100,2.16,IN,1658674819
276,Upata,8.0086,-62.3989,301.59,62,86,2.91,VE,1658674820
277,Coyhaique,-45.5752,-72.0662,271.9,91,83,1.59,CL,1658674821
278,Dawei,14.0833,98.2,299.03,93,100,0.6,MM,1658674826
279,Villa Carlos Paz,-31.4241,-64.4978,290.31,80,83,1.7,AR,1658674811
280,Laas,46.6166,10.7002,304.09,56,67,1.87,IT,1658674827
281,Longyearbyen,78.2186,15.6401,283.06,81,75,7.2,SJ,1658674827
282,Mount Gambier,-37.8333,140.7667,287.33,69,100,5.09,AU,1658674828
283,Rio Grande,-32.035,-52.0986,291.21,86,89,1.88,BR,1658674612
284,Lagoa,39.05,-27.9833,296.35,86,9,4.38,PT,1658674826
285,Khani,41.9563,42.9566,291.91,81,72,2.46,GE,1658674828
286,Adelaide,-34.9333,138.6,287.68,82,100,5.14,AU,1658674693
287,Juba,4.8517,31.5825,301.37,61,99,0.76,SS,1658674829
288,Russell,32.3502,-85.1999,303.69,55,14,1.41,US,1658674829
289,Willmar,45.1219,-95.0433,295.16,68,0,6.69,US,1658674829
290,Sassandra,4.95,-6.0833,298.4,75,100,4.04,CI,1658674830
291,Neiafu,-18.65,-173.9833,297.12,64,100,7.42,TO,1658674830
292,Hualmay,-11.0964,-77.6139,291.11,76,62,3.21,PE,1658674830
293,Payson,40.0444,-111.7321,301.23,49,100,0.89,US,1658674831
294,‘Āhuimanu,21.4447,-157.8378,297.51,80,13,2.24,US,1658674831
295,Mankono,8.0586,-6.1897,298.71,76,100,2.99,CI,1658674831
296,Erin,36.3184,-87.6947,304.32,54,89,4.0,US,1658674832
297,Muros,42.7762,-9.0603,300.75,68,34,3.84,ES,1658674832
298,Stephenville,32.2207,-98.2023,304.13,54,0,5.66,US,1658674833
299,Dinguiraye,11.3,-10.7167,298.94,80,99,1.22,GN,1658674833
300,Cam Ranh,11.9214,109.1591,301.13,83,20,2.06,VN,1658674833
301,Nurota,40.5614,65.6886,308.81,12,0,3.65,UZ,1658674834
302,Pevek,69.7008,170.3133,275.34,89,87,1.26,RU,1658674834
303,Anqiu,36.4342,119.1925,297.15,87,0,3.37,CN,1658674835
304,Kiama,-34.6833,150.8667,284.03,91,4,2.05,AU,1658674835
305,Barão de Melgaço,-16.1944,-55.9675,309.66,18,14,2.91,BR,1658674835
306,Masvingo,-20.0637,30.8277,295.55,22,3,3.77,ZW,1658674836
307,Iqaluit,63.7506,-68.5145,281.87,87,100,1.79,CA,1658674813
308,Guerrero Negro,27.9769,-114.0611,293.66,76,99,2.72,MX,1658674740
309,Mossamedes,-15.1961,12.1522,293.07,77,40,3.95,AO,1658674836
310,Sobolevo,54.4299,31.8996,291.87,93,100,3.47,RU,1658674837
311,Ilulissat,69.2167,-51.1,280.16,93,20,1.54,GL,1658674837
312,Oktyabr'skoye,43.0645,44.7417,295.23,60,75,4.0,RU,1658674837
313,Gari,59.4307,62.3497,295.47,68,23,2.21,RU,1658674838
314,Tateyama,34.9833,139.8667,299.32,88,100,5.85,JP,1658674838
315,Kavieng,-2.5744,150.7967,301.05,77,32,3.91,PG,1658674839
316,Les Cayes,18.2,-73.75,303.79,57,15,1.09,HT,1658674839
317,Wukari,7.85,9.7833,301.48,67,100,2.5,NG,1658674840
318,Mahébourg,-20.4081,57.7,293.85,70,11,5.57,MU,1658674840
319,Marsh Harbour,26.5412,-77.0636,301.52,70,86,6.48,BS,1658674832
320,Nouadhibou,20.931,-17.0347,294.24,93,22,5.57,MR,1658674841
321,Arlit,18.7369,7.3853,313.13,17,8,1.51,NE,1658674841
322,Bacolod City,10.6667,122.95,298.97,86,100,1.84,PH,1658674847
323,Sur,22.5667,59.5289,306.89,58,73,3.33,OM,1658674847
324,Oistins,13.0667,-59.5333,302.88,70,57,4.98,BB,1658674848
325,Vavatenina,-17.4667,49.2,291.05,95,16,0.84,MG,1658674848
326,Vila Franca do Campo,37.7167,-25.4333,297.38,73,63,2.53,PT,1658674849
327,Ukiah,39.1502,-123.2078,300.4,67,0,0.0,US,1658674463
328,Caconda,-13.7333,15.0667,300.49,16,3,1.67,AO,1658674849
329,Iberia,29.9502,-91.7507,306.46,66,15,1.53,US,1658674849
330,Whitehorse,60.7161,-135.0538,283.32,76,100,4.02,CA,1658674850
331,Nova Olinda do Norte,-3.8881,-59.0942,307.1,36,25,1.93,BR,1658674850
332,Huarmey,-10.0681,-78.1522,292.13,77,53,3.82,PE,1658674851
333,Broken Hill,-31.95,141.4333,288.24,61,36,6.68,AU,1658674851
334,La Grande,45.3246,-118.0877,295.38,43,0,1.19,US,1658674851
335,Lorengau,-2.0226,147.2712,300.87,80,59,3.16,PG,1658674852
336,Verkhoyansk,67.5447,133.385,287.25,88,6,1.36,RU,1658674852
337,Chara,56.9064,118.2631,291.83,70,28,2.01,RU,1658674852
338,Uruçuí,-7.2294,-44.5561,307.53,30,46,4.67,BR,1658674853
339,Alofi,-19.0595,-169.9187,296.01,62,100,7.02,NU,1658674853
340,Abu Kamal,34.4506,40.9171,311.13,11,0,7.82,SY,1658674853
341,Narsaq,60.9167,-46.05,284.27,65,19,0.89,GL,1658674854
342,Booué,-0.0921,11.9385,303.52,52,96,1.69,GA,1658674854
343,Whyalla,-33.0333,137.5833,287.03,79,100,2.65,AU,1658674855
344,Saint-Pierre,-21.3393,55.4781,294.98,64,75,2.06,RE,1658674855
345,Jacareacanga,-6.2222,-57.7528,308.11,25,20,2.15,BR,1658674855
346,Airai,-8.9266,125.4092,285.12,87,94,0.88,TL,1658674856
347,Mogadishu,2.0371,45.3438,297.73,81,22,9.23,SO,1658674856
348,Santa Cruz de Barahona,18.2085,-71.1008,303.75,49,4,2.65,DO,1658674824
349,Porosozero,62.7191,32.727,290.0,85,100,0.73,RU,1658674857
350,Wattegama,6.7989,81.4808,299.01,82,100,0.67,LK,1658674857
351,Idah,7.1065,6.7342,299.65,84,94,1.28,NG,1658674858
352,Yulara,-25.2406,130.9889,288.06,51,0,7.72,AU,1658674858
353,Rossland,49.0831,-117.8022,288.49,66,0,0.8,CA,1658674858
354,Rāhuri,19.3833,74.65,297.23,81,100,5.24,IN,1658674859
355,Leningradskiy,69.3833,178.4167,274.43,94,100,1.48,RU,1658674859
356,Acaraú,-2.8856,-40.12,304.37,50,23,6.56,BR,1658674860
357,Malakal,9.5334,31.6605,298.02,81,100,1.21,SS,1658674860
358,Makakilo City,21.3469,-158.0858,296.86,77,3,6.06,US,1658674860
359,Bambous Virieux,-20.3428,57.7575,293.83,70,13,5.65,MU,1658674861
360,Beloha,-25.1667,45.05,293.41,66,10,3.12,MG,1658674861
361,Tagusao,9.1924,117.8141,300.28,82,60,1.37,PH,1658674861
362,Riosucio,5.4216,-75.7032,294.2,66,73,0.8,CO,1658674862
363,Zhezkazgan,47.8043,67.7144,304.14,15,20,3.0,KZ,1658674862
364,Beidao,34.5686,105.8933,294.08,83,66,2.01,CN,1658674862
365,Port Lincoln,-34.7333,135.8667,286.4,84,97,6.81,AU,1658674854
366,Maunabo,18.0072,-65.8993,302.85,78,21,6.44,PR,1658674863
367,San Quintín,30.4833,-115.95,293.11,83,95,2.41,MX,1658674863
368,Sheridan,44.8333,-106.9173,299.43,47,0,4.63,US,1658674863
369,Alyangula,-13.8483,136.4192,293.97,91,9,4.01,AU,1658674864
370,Aksu,41.1231,80.2644,308.75,11,59,2.54,CN,1658674869
371,Vanimo,-2.6741,141.3028,299.1,89,99,2.27,PG,1658674870
372,Baghdad,33.3406,44.4009,315.1,10,0,3.6,IQ,1658674738
373,Izumo,35.3667,132.7667,298.04,88,100,1.4,JP,1658674870
374,Norman Wells,65.282,-126.8329,288.69,61,89,2.4,CA,1658674871
375,São João da Barra,-21.6403,-41.0511,297.27,65,0,5.9,BR,1658674871
376,Sioux Lookout,50.1001,-91.917,284.19,82,100,4.63,CA,1658674653
377,Broome,42.2506,-75.833,302.15,69,49,4.02,US,1658674872
378,Sindou,10.6667,-5.1667,297.68,81,100,1.63,BF,1658674872
379,Santa Maria,-29.6842,-53.8069,297.61,67,93,0.54,BR,1658674872
380,Shunyi,40.125,116.6453,298.12,73,0,2.0,CN,1658674873
381,Weston,26.1004,-80.3998,306.16,63,99,4.92,US,1658674754
382,Anchorage,61.2181,-149.9003,285.36,84,98,1.34,US,1658674633
383,Bezhetsk,57.7851,36.6965,296.23,78,78,3.86,RU,1658674873
384,Inyonga,-6.7167,32.0667,302.13,25,17,2.03,TZ,1658674874
385,Antofagasta,-23.65,-70.4,290.94,60,5,1.93,CL,1658674874
386,Vao,-22.6667,167.4833,295.47,80,57,5.85,NC,1658674875
387,Seidu,9.0167,-10.6,294.51,95,100,1.85,SL,1658674875
388,Olinda,-8.0089,-34.8553,300.0,65,40,8.75,BR,1658674875
389,Port Shepstone,-30.7414,30.455,289.17,62,39,12.25,ZA,1658674876
390,Outlook,51.5001,-107.0513,292.72,58,23,1.45,CA,1658674876
391,Tracy,37.7397,-121.4252,292.62,81,0,2.55,US,1658674700
392,Surab,28.4914,66.2585,295.16,73,98,3.6,PK,1658674876
393,Mahajanga,-15.7167,46.3167,297.97,58,9,3.7,MG,1658674877
394,San Isidro,-12.1167,-77.05,289.83,77,67,3.24,PE,1658674877
395,Qinhuangdao,39.9317,119.5883,297.33,90,1,1.17,CN,1658674878
396,Preston,53.7667,-2.7167,294.61,77,100,7.81,GB,1658674878
397,Cayenne,4.9333,-52.3333,303.2,13,75,2.57,GF,1658674879
398,Vila do Maio,15.1333,-23.2167,299.31,85,70,5.07,CV,1658674879
399,Severo-Kuril'sk,50.6789,156.125,284.64,96,100,3.76,RU,1658674879
400,Port Hawkesbury,45.6169,-61.3485,305.31,73,18,1.34,CA,1658674880
401,Tafresh,34.692,50.013,304.9,15,1,1.34,IR,1658674880
402,Sampit,-2.5333,112.95,296.22,96,85,1.27,ID,1658674882
403,Warmbad,-28.45,18.7333,290.2,22,0,6.96,NA,1658674882
404,Kerema,-7.9631,145.7785,298.28,92,96,3.38,PG,1658674882
405,Kloulklubed,7.0419,134.2556,296.43,75,100,3.01,PW,1658674883
406,Tonantins,-2.8731,-67.8022,299.57,82,100,1.3,BR,1658674883
407,Port Hardy,50.6996,-127.4199,287.03,84,86,2.53,CA,1658674836
408,Srednekolymsk,67.45,153.6833,286.37,49,100,2.76,RU,1658674883
409,Alice Springs,-23.7,133.8833,284.9,37,0,3.09,AU,1658674708
410,Tombouctou,20.0,-3.0,311.54,27,18,8.4,ML,1658674884
411,Fort Dodge,42.4975,-94.168,296.15,68,0,3.09,US,1658674884
412,Chatrā,24.2167,84.8667,299.64,78,71,5.46,IN,1658674885
413,Ancud,-41.8697,-73.8203,281.05,95,100,1.66,CL,1658674885
414,Tazmalt,36.3868,4.3989,313.1,13,1,3.23,DZ,1658674886
415,New Norfolk,-42.7826,147.0587,281.88,88,84,1.21,AU,1658674891
416,Udachny,66.4167,112.4,293.22,68,89,6.53,RU,1658674892
417,Westport,41.1415,-73.3579,306.53,56,70,2.24,US,1658674840
418,Kalmunai,7.4167,81.8167,300.76,72,100,0.61,LK,1658674892
419,Bubaque,11.2833,-15.8333,296.95,93,100,3.05,GW,1658674892
420,Puerto Escondido,15.85,-97.0667,301.95,69,92,1.65,MX,1658674893
421,Cascais,38.6979,-9.4215,306.27,45,0,8.75,PT,1658674893
422,Christchurch,-43.5333,172.6333,279.26,100,100,1.54,NZ,1658674837
423,Yatou,37.15,122.3833,295.38,93,0,2.22,CN,1658674893
424,Talnakh,69.4865,88.3972,291.94,77,83,8.5,RU,1658674894
425,Kuytun,54.3419,101.5036,288.35,70,100,1.12,RU,1658674894
426,Sabha,27.0377,14.4283,308.36,14,0,5.72,LY,1658674894
427,Karratha,-20.7377,116.8463,293.21,67,0,1.53,AU,1658674895
428,Linjiang,41.8069,126.9078,290.34,98,5,0.8,CN,1658674895
429,Villarrica,-25.75,-56.4333,301.25,43,99,3.64,PY,1658674895
430,Sirte,31.2089,16.5887,302.64,58,0,7.3,LY,1658674896
431,Ibrā’,22.6906,58.5334,303.72,49,87,8.67,OM,1658674896
432,Peruíbe,-24.32,-46.9983,297.51,52,98,1.93,BR,1658674896
433,Orlik,52.5178,99.825,283.37,84,62,1.36,RU,1658674897
434,Ténenkou,14.4572,-4.9169,307.64,37,64,3.17,ML,1658674897
435,Padang,-0.9492,100.3543,298.62,88,98,1.51,ID,1658674898
436,Hudson Bay,52.85,-102.3842,289.5,60,21,1.07,CA,1658674898
437,Victor Harbor,-35.5667,138.6167,287.04,88,100,5.89,AU,1658674898
438,Hearst,49.6835,-83.6665,290.23,93,96,2.87,CA,1658674898
439,Kumëny,58.1089,49.9161,298.01,70,31,1.91,RU,1658674899
440,North Bend,43.4065,-124.2243,286.57,100,19,0.45,US,1658674899
441,Hofn,64.2539,-15.2082,284.16,87,75,4.63,IS,1658674899
442,Mopti,14.6667,-4.0,306.71,41,100,3.45,ML,1658674900
443,Esso,55.9333,158.7,285.64,92,100,2.0,RU,1658674900
444,Iquitos,-3.7481,-73.2472,299.05,77,74,0.12,PE,1658674900
445,Sørland,67.667,12.6934,286.07,77,75,7.39,NO,1658674901
446,Emba,48.8264,58.1442,300.1,40,86,2.19,KZ,1658674901
447,Hasaki,35.7333,140.8333,298.31,87,99,6.52,JP,1658674901
448,Fatehpur,25.9333,80.8,305.86,54,91,3.5,IN,1658674902
449,Shabo,46.1326,30.386,299.34,55,94,7.1,UA,1658674902
450,Provincia di Imperia,43.9667,7.7833,307.01,74,34,2.14,IT,1658674902
451,Teahupoo,-17.8333,-149.2667,296.13,75,3,6.65,PF,1658674903
452,Synya,65.3718,58.0387,286.55,60,72,3.28,RU,1658674903
453,Nishihara,26.1842,127.7558,301.75,94,75,3.6,JP,1658674903
454,Keflavik,64.0049,-22.5624,283.39,93,75,5.66,IS,1658674903
455,Alekseyevsk,57.8406,108.3492,289.87,96,100,1.06,RU,1658674904
456,Sar-e Pul,35.8333,66.1667,299.35,23,0,1.41,AF,1658674904
457,Vikhorevka,56.1201,101.1636,288.92,75,34,0.32,RU,1658674904
458,Wamba,8.9333,8.6,302.01,64,66,2.45,NG,1658674905
459,Kirkwall,58.9848,-2.9587,292.18,77,75,6.69,GB,1658674905
460,Oranjestad,12.524,-70.027,299.75,79,2,7.73,AW,1658674905
461,Eisenach,50.9833,10.3167,305.61,26,28,2.16,DE,1658674911
462,Lata,40.1629,-8.3327,302.31,45,58,4.97,PT,1658674911
463,Pryamitsyno,51.6561,35.9314,301.45,53,60,2.66,RU,1658674911
464,Tiruchchendur,8.4833,78.1167,301.36,71,100,2.35,IN,1658674912
465,Vysokaya Gora,55.9128,49.3017,301.46,58,74,1.07,RU,1658674912
466,Orcopampa,-15.2661,-72.3417,283.81,35,25,0.79,PE,1658674912
467,Maragogi,-9.0122,-35.2225,297.59,72,100,5.61,BR,1658674913
468,Olutanga,7.3106,122.8464,301.09,77,100,2.59,PH,1658674913
469,Comodoro Rivadavia,-45.8667,-67.5,276.66,52,6,1.13,AR,1658674801
470,Ulladulla,-35.35,150.4667,284.16,93,3,1.46,AU,1658674913
471,El Cobre,20.0489,-75.9469,303.0,52,100,1.93,CU,1658674914
472,Maple Creek,49.9168,-109.4848,294.9,44,3,4.86,CA,1658674836
473,Urusha,54.05,122.9,290.08,78,14,0.95,RU,1658674914
474,Bhadrāchalam,17.6667,80.8833,298.74,90,100,0.63,IN,1658674914
475,Libreville,0.3925,9.4537,300.16,74,20,4.12,GA,1658674663
476,Sabang,5.8933,95.3214,300.8,77,100,5.88,ID,1658674915
477,Lianzhou,24.7811,112.3825,301.96,75,38,0.79,CN,1658674915
478,Altamirano,16.8833,-92.15,291.15,70,93,2.06,MX,1658674915
479,Bria,6.5423,21.9863,300.96,75,28,1.63,CF,1658674916
480,Taoudenni,22.6783,-3.9836,318.56,9,9,6.18,ML,1658674916
481,Burley,42.5357,-113.7928,294.98,15,1,4.36,US,1658674806
482,Kankaanpää,61.8,22.4167,293.57,38,30,1.66,FI,1658674916
483,Springbok,-29.6643,17.8865,288.18,21,0,9.57,ZA,1658674917
484,Santiago,-33.4569,-70.6483,292.03,65,100,1.54,CL,1658674749
485,Cabedelo,-6.9811,-34.8339,298.97,77,87,9.6,BR,1658674917
486,Flin Flon,54.7682,-101.865,290.07,55,92,2.52,CA,1658674835
487,Luwuk,-0.9516,122.7875,297.59,89,89,2.11,ID,1658674917
488,Conde,-7.2597,-34.9075,298.84,73,99,8.82,BR,1658674918
489,Matara,5.9485,80.5353,298.77,84,97,4.9,LK,1658674918
490,Zhangaözen,43.3,52.8,298.6,48,71,5.94,KZ,1658674918
491,Te Anau,-45.4167,167.7167,277.18,96,95,0.75,NZ,1658674919
492,Sofiyivka,48.0493,33.8746,303.71,27,47,4.69,UA,1658674919
493,Indianola,41.3581,-93.5574,300.13,65,85,5.76,US,1658674919
494,Fuzhou,26.0614,119.3061,301.1,88,0,0.2,CN,1658674920
495,Granada,37.25,-3.25,310.44,10,0,5.36,ES,1658674920
496,Mezen',65.8522,44.24,288.2,59,44,4.15,RU,1658674920
497,Tiksi,71.6872,128.8694,279.76,82,27,1.88,RU,1658674921
498,Diffa,13.3154,12.6113,309.9,29,23,1.34,NE,1658674921
499,Port Antonio,18.18,-76.4612,304.82,65,99,2.82,JM,1658674921
500,Upington,-28.4478,21.2561,291.23,17,0,4.87,ZA,1658674922
501,Catuday,16.2923,119.8062,301.43,78,65,3.56,PH,1658674922
502,Celestún,20.8667,-90.4,301.26,70,68,3.23,MX,1658674922
503,Locri,38.2414,16.2623,306.42,43,0,2.9,IT,1658674923
504,Ardeşen,41.1911,40.9875,295.75,72,31,2.55,TR,1658674923
505,Kidal,18.4411,1.4078,308.87,27,93,3.27,ML,1658674924
506,Praia da Vitória,38.7333,-27.0667,298.57,85,19,0.8,PT,1658674924
507,Shirokiy,49.758,129.523,291.26,88,6,1.35,RU,1658674924
508,Sūsangerd,31.5608,48.1831,316.85,6,0,7.39,IR,1658674930
509,Batagay-Alyta,67.8006,130.4114,283.97,91,28,0.55,RU,1658674930
510,Timberlake,37.3207,-79.2575,303.65,64,3,2.03,US,1658674931
511,Phang Nga,8.4509,98.5298,299.17,92,90,0.95,TH,1658674931
512,Yambio,4.5721,28.3955,300.79,66,83,1.07,SS,1658674931
513,Wajir,1.7471,40.0573,304.33,31,58,9.54,KE,1658674932
514,Andalan,5.9594,121.3903,299.8,79,100,2.0,PH,1658674932
515,Pemangkat,1.1667,108.9667,298.97,86,100,2.18,ID,1658674932
516,Longonjo,-12.9067,15.2533,302.08,17,3,2.0,AO,1658674933
517,Pisco,-13.7,-76.2167,290.42,76,91,1.43,PE,1658674933
518,La Palma,33.8464,-118.0467,294.77,84,100,1.54,US,1658674934
519,Taltal,-25.4,-70.4833,288.61,74,0,2.04,CL,1658674829
520,Tūkrah,32.5341,20.5791,302.3,61,0,7.03,LY,1658674934
521,Aykhal,66.0,111.5,293.29,72,66,6.4,RU,1658674934
522,San Ramon,37.7799,-121.978,289.58,86,0,2.24,US,1658674792
523,Venice,27.0998,-82.4543,304.41,73,0,5.14,US,1658674697
524,Zaysan,47.4667,84.8667,293.55,31,10,2.44,KZ,1658674935
525,Razdolinsk,58.4211,94.6658,288.21,76,85,1.47,RU,1658674936
526,Plettenberg Bay,-34.0527,23.3716,287.36,68,72,1.69,ZA,1658674936
527,Mahina,-17.5065,-149.489,299.02,78,40,5.14,PF,1658674936
528,Bar Harbor,44.3876,-68.2039,303.67,66,89,3.84,US,1658674937
529,Ust'-Ilimsk,58.0006,102.6619,289.67,74,68,1.46,RU,1658674937
530,Hambantota,6.1241,81.1185,301.34,78,100,3.09,LK,1658674937
531,Tibiao,11.2915,122.0354,300.31,80,98,1.48,PH,1658674938
532,Garchitorena,13.8804,123.6946,300.63,85,80,2.56,PH,1658674938
533,Salamiyah,35.0113,37.0532,308.31,16,0,7.23,SY,1658674939
534,Marzuq,14.4,46.4667,303.08,51,30,6.49,YE,1658674939
535,Havelock,34.8791,-76.9013,304.29,83,20,3.13,US,1658674900
536,Sambava,-14.2667,50.1667,294.94,82,55,5.33,MG,1658674939
537,Zhangye,38.9342,100.4517,301.45,19,2,0.9,CN,1658674940
538,Duki,30.1541,68.5728,297.66,77,100,2.15,PK,1658674940
539,Sinnamary,5.3833,-52.95,302.29,68,74,3.31,GF,1658674941
540,Berdigestyakh,62.0989,126.6992,289.6,82,4,1.77,RU,1658674941
541,Belmonte,-15.8631,-38.8828,298.39,61,44,4.27,BR,1658674941
542,Diapaga,12.0708,1.7889,296.91,82,100,3.47,BF,1658674942
543,Maceió,-9.6658,-35.7353,301.84,51,40,7.72,BR,1658674807
544,Bilma,18.6853,12.9164,315.31,11,7,6.05,NE,1658674942
545,Turan,16.0678,108.2208,302.14,79,20,1.03,VN,1658674718
546,Camaná,-16.6228,-72.7111,291.44,70,53,3.55,PE,1658674943
547,Rome,43.2128,-75.4557,302.49,65,89,0.45,US,1658674806
548,Merauke,-8.4667,140.3333,297.22,89,45,5.6,ID,1658674943
549,Zafra,38.4167,-6.4167,312.81,9,77,5.1,ES,1658674944
550,Marrakesh,31.6315,-8.0083,315.19,13,40,9.26,MA,1658674723
551,Emerald,-23.5333,148.1667,287.19,68,0,2.81,AU,1658674944
552,Muroto-misakicho,33.2833,134.15,299.13,84,96,1.53,JP,1658674944
553,Sibolga,1.7427,98.7792,298.38,92,100,2.02,ID,1658674945
554,Hihyā,30.6713,31.588,309.67,16,2,7.68,EG,1658674945
555,Camocim,-2.9022,-40.8411,305.81,46,21,5.06,BR,1658674951
556,Krutinka,56.0055,71.5113,289.21,82,78,3.67,RU,1658674951
557,Mamlyutka,54.9375,68.5394,292.32,77,40,3.14,KZ,1658674951
558,Chui,-33.6971,-53.4616,291.38,85,49,1.27,UY,1658674952
559,Buin,-33.7333,-70.75,291.97,74,100,1.14,CL,1658674952
560,Bima,-8.4667,118.7167,293.29,83,25,1.97,ID,1658674952
561,Guanambi,-14.2233,-42.7814,300.83,41,93,5.83,BR,1658674909
562,Portland,45.5234,-122.6762,290.9,88,5,1.34,US,1658674444
563,Poum,-20.2333,164.0167,296.45,71,0,4.17,NC,1658674953
564,Solnechnyy,50.7214,136.6319,289.95,91,10,1.69,RU,1658674953
565,Daru,-9.0763,143.2092,297.94,89,100,6.56,PG,1658674953
566,Bethel,41.3712,-73.414,305.07,59,44,0.89,US,1658674954
567,Galesong,-5.3166,119.3661,296.16,76,90,4.75,ID,1658674954
568,Langxiang,46.95,128.8833,290.6,99,100,1.06,CN,1658674954
569,Kota Belud,6.351,116.4305,298.69,89,99,1.63,MY,1658674955
570,Thunder Bay,48.4001,-89.3168,287.94,87,75,4.65,CA,1658674840
571,Kholodnyy,62.7167,147.95,284.67,89,96,1.59,RU,1658674955
572,Wanaka,-44.7,169.15,273.77,97,94,0.89,NZ,1658674955
573,Bowen,-20.0167,148.2333,289.08,91,5,2.96,AU,1658674956
574,Serov,59.6033,60.5787,295.81,69,77,1.29,RU,1658674956
575,Province of Mantua,45.1667,10.7833,310.98,39,3,3.48,IT,1658674956
576,Karasuk,53.7377,78.0403,287.92,71,44,3.34,RU,1658674957
577,Revelstoke,50.9832,-118.2023,295.94,48,27,0.4,CA,1658674865
578,Inhambane,-23.865,35.3833,295.48,70,26,2.98,MZ,1658674957
579,Joanópolis,-22.9303,-46.2756,300.18,27,66,0.43,BR,1658674957
580,Fallon,39.4735,-118.7774,299.51,21,0,2.55,US,1658674958
581,Nueva Loja,0.0847,-76.8828,298.33,74,91,0.92,EC,1658674958
582,Rafrāf,37.1904,10.1837,309.32,51,0,4.85,TN,1658674958
